{
  "obiekty" : [
    {
      "position" : {"lat" : "50.810997", "lng" : "19.100235"},
      "title" : "Muzeum Górnictwa Rud Żelaza w Częstochowie",
      "place" : "Częstochowa, Park im. S.Staszica",
      "hyperlink" : "http://kopalnia.muzeumczestochowa.pl",
      "category" : "trasyPodziemne"
    },
    {
      "position" : {"lat" : "50.574331", "lng" : "19.522621"},
      "title" : "Ścieżka przyrodnicza po rezerwacie przyrody nieożywionej Góra Zborów k/Podlesic, Geostanowiska",
      "place" : "Gmina Kroczyce",
      "hyperlink" : "http://www.podlesice.org.pl/podlesice1/",
      "category" : "sciezkiTematyczne"
    },
    {
      "position" : {"lat" : "50.575626", "lng" : "19.524289"},
      "title" : "Jaskinia Głęboka w rezerwacie przyrody nieożywionej Góra Zborów w Podlesicach, Geostanowisko",
      "place" : "Podlesice, Gmina Kroczyce",
      "hyperlink" : "http://geostanowiska.pgi.gov.pl/gsapp_v2/ObjectDetails.aspx?id=171",
      "category" : "trasyPodziemne"
    },
    {
      "position" : {"lat" : "50.877535", "lng" : "19.233106"},
      "title" : "Ścieżka dydaktyczna Kamieniołom Lipówka w Rudnikach, Geostanowisko",
      "place" : "Rudniki, ul .Dworcowa",
      "hyperlink" : "http://www.cemex.pl/kamieniolom-lipowka.aspx",
      "category" : "sciezkiTematyczne"
    },
    {
      "position" : {"lat" : "50.681461", "lng" : "18.629606"},
      "title" : "Muzeum Paleontologiczne w Lisowicach",
      "place" : "Lisowice, ul. Mickiewicza 20",
      "hyperlink" : "http://muzeum.lisowice.com/",
      "category" : "muzeaGeologiczneIDinoparki"
    },
    {
      "position" : {"lat" : "50.573431", "lng" : "19.522541"},
      "title" : "Centrum Dziedzictwa Przyrodniczego i Kulturowego Jury w Podlesicach",
      "place" : "Gmina Kroczyce",
      "hyperlink" : "http://www.podlesice.org.pl/",
      "category" : "muzeaGeologiczneIDinoparki"
    },
    {
      "position" : {"lat" : "49.604436", "lng" : "19.118363"},
      "title" : "Wirtualne Muzeum Odlewni Żeliwa w Węgierskiej Górce",
      "place" : "Węgierska Górka",
      "hyperlink" : "http://www.historia.metalpol.com/",
      "category" : "muzeaGeologiczneIDinoparki"
    },
    {
      "position" : {"lat" : "50.757984", "lng" : "19.268618"},
      "title" : "Ścieżka geoturystyczna Góry Towarne w Olsztynie, Geostanowiska",
      "place" : "Gmina Olsztyn",
      "hyperlink" : "http://jura.slaskie.travel/Trasy/Pokaz/8108/sciezka-geologiczna-w-krainie-bialych-skal/1247",
      "category" : "sciezkiTematyczne"
    },
    {
      "position" : {"lat" : "50.752308", "lng" : "19.278467"},
      "title" : "Wirtualna ścieżka dydaktyczna Kamieniołom Kielniki, Geostanowiska",
      "place" : "Olsztyn",
      "hyperlink" : "http://geoportal.pgi.gov.pl/css/virtual/kielniki/sciezka.swf",
      "category" : "sciezkiTematyczne"
    },
    {
    "position" : {"lat" : "50.227293", "lng" : "19.274351"},
    "title" : "Ośrodek Edukacji Ekologiczno-Geologicznej GEOsfera w Jaworznie, Geostanowisko",
    "place" : "Jaworzno, ul. Św. Wojciecha 100",
    "hyperlink" : "https://www.facebook.com/geosfera/?ref=page_internal",
    "category" : "muzeaGeologiczneIDinoparki"
    },
    {
      "position" : {"lat" : "49.748861", "lng" : "18.790024"},
      "title" : "Parku Ruchomych Dinozaurów i Ogromnych Owadów w Ustroniu",
      "place" : "Ustroń, ul. Katowicka 201",
      "hyperlink" : "http://www.parkdinozaurow-ustron.pl/park-dinozaurow-ustron",
      "category" : "muzeaGeologiczneIDinoparki"
    },
    {
      "position" : {"lat" : "50.319327", "lng" : "19.184904"},
      "title" : "Kopalnia Ćwiczebna w Dąbrowie Górniczej, Geostanowisko",
      "place" : "Dąbrowa Górnicza, ul. Górnicza",
      "hyperlink" : "http://muzeum-dabrowa.pl/",
      "category" : "trasyPodziemne"
    },
    {
      "position" : {"lat" : "50.296432", "lng" : "18.798901"},
      "title" : "Kopalnia Królowa Luiza w Zabrzu",
      "place" : "Zabrze, ul. Sienkiewicza 43 (wjazd od ul. Mochnackiego)",
      "hyperlink" : "http://www.sztolnialuiza.pl/index.php/kopalnia-krolowa-luiza",
      "category" : "trasyPodziemne"
    },
    {
      "position" : {"lat" : "50.296654", "lng" : "18.806545"},
      "title" : "Sztolnia Królowa Luiza w Zabrzu – Szyb Carnall",
      "place" : "Zabrze, ul. Wolności 410",
      "hyperlink" : "http://www.sztolnialuiza.pl/index.php/sztolnia-krolowa-luiza",
      "category" : "trasyPodziemne"
    },
    {
      "position" : {"lat" : "50.308744", "lng" : "18.783928"},
      "title" : "Sztolnia Królowa Luiza w Zabrzu – wylot Głównej Kluczowej Sztolni Dziedzicznej (w rewitalizacji)",
      "place" : "Zabrze, ul. Miarki 8",
      "hyperlink" : "http://www.sztolnialuiza.pl/index.php/sztolnia-krolowa-luiza",
      "category" : "trasyPodziemne"
    },
    {
      "position" : {"lat" : "50.425519", "lng" : "18.849568"},
      "title" : "Zabytkowa Kopalnia Srebra w Tarnowskich Górach, Geostanowisko międzynarodowe",
      "place" : "Tarnowskie Góry, ul. Szczęść Boże 81",
      "hyperlink" : "http://www.kopalniasrebra.pl/kopalnia/kopalnia.php",
      "category" : "trasyPodziemne"
    },
    {
      "position" : {"lat" : "50.289459", "lng" : "18.791420"},
      "title" : "Kopalnia Guido w Zabrzu, Geostanowisko międzynarodowe",
      "place" : "Zabrze, 3 Maja 93",
      "hyperlink" : "https://kopalniaguido.pl/index.php/pl-pl/",
      "category" : "trasyPodziemne"
    },
    {
      "position" : {"lat" : "50.289639", "lng" : "18.791556"},
      "title" : "Kopalnia Guido w Zabrzu",
      "place" : "Zabrze, 3 Maja 93",
      "hyperlink" : "http://geostanowiska.pgi.gov.pl/gsapp_v2/ObjectDetails.aspx?id=1634",
      "category" : "geostanowiskaMiedzynarodowe"
    },
    {
      "position" : {"lat" : "50.425089", "lng" : "18.850956"},
      "title" : "Zabytkowa Kopalnia Srebra w Tarnowskich Górach",
      "place" : "Tarnowskie Góry, ul. Szczęść Boże 81",
      "hyperlink" : "http://geostanowiska.pgi.gov.pl/gsapp_v2/ObjectDetails.aspx?id=7020",
      "category" : "geostanowiskaMiedzynarodowe"
    },
    {
      "position" : {"lat" : "50.296528", "lng" : "18.807111"},
      "title" : "Skansen Królowa Luiza w Zabrzu",
      "place" : "Zabrze, ul. Wolności 410",
      "hyperlink" : "http://geostanowiska.pgi.gov.pl/gsapp_v2/ObjectDetails.aspx?id=1850",
      "category" : "geostanowiskaMiedzynarodowe"
    },
    {
      "position" : {"lat" : "50.314952", "lng" : "18.741490"},
      "title" : "Szyb „Maciej” w Zabrzu, Geostanowisko",
      "place" : "Zabrze, ul. Srebrna 6",
      "hyperlink" : "http://www.szybmaciej.pl/",
      "category" : "obiektyPoprzemyslowe"
    },
    {
      "position" : {"lat" : "50.427044", "lng" : "18.807134"},
      "title" : "Sztolnia Czarnego Pstrąga w Tarnowskich Górach – Szyb Sylwester, Geostanowisko",
      "place" : "Tarnowskie Góry, ul. Śniadeckiego / Repecka",
      "hyperlink" : "http://www.kopalniasrebra.pl/sztolnia/sztolnia.php",
      "category" : "trasyPodziemne"
    },
    {
      "position" : {"lat" : "50.429977", "lng" : "18.799869"},
      "title" : "Sztolnia Czarnego Pstrąga w Tarnowskich Górach – Szyb Ewa, Geostanowisko",
      "place" : "Tarnowskie Góry, ul. Śniadeckiego / Repecka",
      "hyperlink" : "http://www.kopalniasrebra.pl/sztolnia/sztolnia.php",
      "category" : "trasyPodziemne"
    },
    {
      "position" : {"lat" : "50.402597", "lng" : "18.859255"},
      "title" : "Kamieniołom dolomitów środkowotriasowych   Blachówka w Bytomiu (nieczynny), Stanowisko dokumentacyjne",
      "place" : "Bytom - Sucha Góra, ul. Blachówka 94",
      "hyperlink" : "http://geostanowiska.pgi.gov.pl/gsapp_v2/ObjectDetails.aspx?id=10446",
      "category" : "geostanowiskaInne"
    },
    {
      "position" : {"lat" : "49.464108", "lng" : "19.152271"},
      "title" : "Geo-park Glinka w dawnym kamieniołomie piaskowców magurskich",
      "place" : "Ujsoły, Glinka 4",
      "hyperlink" : "http://geostanowiska.pgi.gov.pl/gsapp_v2/ObjectDetails.aspx?id=7350",
      "category" : "geostanowiskaInne"
    },
    {
      "position" : {"lat" : "50.325843", "lng" : "19.133729"},
      "title" : "Podziemia będzińskie w Górze Zamkowej, Geostanowisko",
      "place" : "Będzin, ul. Małachowskiego",
      "hyperlink" : "http://muzeum.bedzin.pl/podziemia-b%C4%99dzi%C5%84skie",
      "category" : "trasyPodziemne"
    },
    {
      "position" : {"lat" : "50.439148", "lng" : "19.667091"},
      "title" : "Ośrodek edukacyjny ZPKWŚ w Smoleniu",
      "place" : "Smoleń, Gmina Pilica",
      "hyperlink" : "http://www.zpk.com.pl/osrodki-edukacyjne/osrodek-smolen",
      "category" : "muzeaGeologiczneIDinoparki"
    },
    {
      "position" : {"lat" : "50.313082", "lng" : "19.131317"},
      "title" : "Ośrodek edukacyjny ZPKWŚ w Będzinie",
      "place" : "Będzin, ul. I. Krasickiego 25",
      "hyperlink" : "http://www.zpk.com.pl/osrodki-edukacyjne/bedzin",
      "category" : "muzeaGeologiczneIDinoparki"
    },
    {
      "position" : {"lat" : "50.734120", "lng" : "18.886205"},
      "title" : "Ośrodek edukacyjny ZPKWŚ w Kalinie",
      "place" : "Kalina, ul. Lompy 6",
      "hyperlink" : "http://www.zpk.com.pl/osrodki-edukacyjne/osrodek-kalina",
      "category" : "muzeaGeologiczneIDinoparki"
    },
    {
      "position" : {"lat" : "50.191491", "lng" : "18.445949"},
      "title" : "Ośrodek edukacyjny ZPKWŚ w Rudach",
      "place" : "Rudy, ul. Raciborska 10",
      "hyperlink" : "http://www.zpk.com.pl/osrodki-edukacyjne/osrodek-rudy",
      "category" : "muzeaGeologiczneIDinoparki"
    },
    {
      "position" : {"lat" : "49.691166", "lng" : "19.184952"},
      "title" : "Ośrodek edukacyjny ZPKWŚ w Żywcu",
      "place" : "Żywiec, ul. Łączki 44 a",
      "hyperlink" : "http://www.zpk.com.pl/osrodki-edukacyjne/osrodek-zywiec",
      "category" : "muzeaGeologiczneIDinoparki"
    },
    {
      "position" : {"lat" : "50.268775", "lng" : "19.143301"},
      "title" : "Sala ekspozycyjna Oddziału PIG-PIB w Sosnowcu",
      "place" : "Sosnowiec, ul. Królowej Jadwigi 1",
      "hyperlink" : "https://www.pgi.gov.pl/sosnowiec/wystawa.html",
      "category" : "muzeaGeologiczneIDinoparki"
    },
    {
      "position" : {"lat" : "50.318136", "lng" : "19.008677"},
      "title" : "Park Tradycji na terenie dawnej KWK Michał w Siemianowicach Śląskich",
      "place" : "Siemianowice Śląskie, ul. Orzeszkowej 12",
      "hyperlink" : "http://www.siemianowice.pl/kultura/katalog/obiekty-kultury/sck-park-tradycji.101/",
      "category" : "obiektyPoprzemyslowe"
    },
    {
      "position" : {"lat" : "50.349076", "lng" : "18.925711"},
      "title" : "Muzeum Górnośląskie w Bytomiu",
      "place" : "Bytom, pl. Jana III Sobieskiego 2",
      "hyperlink" : "http://muzeum.bytom.pl/",
      "category" : "muzeaGeologiczneIDinoparki"
    },
    {
      "position" : {"lat" : "50.394799", "lng" : "18.676303"},
      "title" : "Zabytkowa Stacja Wodociągowa Zawada w Karchowicach",
      "place" : "Karchowice, ul. Bytomska 6",
      "hyperlink" : "http://www.gpw-zawada.pl/",
      "category" : "obiektyPoprzemyslowe"
    },
    {
      "position" : {"lat" : "50.298939", "lng" : "19.133810"},
      "title" : "Muzeum Wydziału Nauk o Ziemi w Sosnowcu",
      "place" : "Sosnowiec, Będzińska 60",
      "hyperlink" : "http://www.muzeum.wnoz.us.edu.pl/",
      "category" : "muzeaGeologiczneIDinoparki"
    },
    {
      "position" : {"lat" : "50.282372", "lng" : "18.995629"},
      "title" : "Kotlina Dinozaurów w Chorzowie, Geostanowisko",
      "place" : "Chorzów, Promenada Gen. Jerzego Ziętka 7",
      "hyperlink" : "http://zoo.silesia.pl/kotlina-dinozaurow",
      "category" : "muzeaGeologiczneIDinoparki"
    },
    {
      "position" : {"lat" : "50.315801", "lng" : "19.029369"},
      "title" : "Park dinozaurów w Siemianowicach Śląskich",
      "place" : "Siemianowice Śl., ul. Spacerowa",
      "hyperlink" : "https://www.google.pl/search?q=dinozaury+siemianowice+slaskie&oq=dinozaury+siem&aqs=chrome.1.69i57j0.9730j0j4&sourceid=chrome&ie=UTF-8#q=park+dinozaur%C3%B3w+siemianowice,+siemianowice+%C5%9Bl%C4%85skie",
      "category" : "muzeaGeologiczneIDinoparki"
    },
    {
      "position" : {"lat" : "49.720208", "lng" : "18.825733"},
      "title" : "Uzdrowisko Ustroń (pijalnia wód, fontanna solankowa i kopalnia solanki)",
      "place" : "Ustroń, ul. Sanatoryjna",
      "hyperlink" : "http://www.uzdrowisko-ustron.pl/O-uzdrowisku/Atrakcje-Uzdrowiska-i-okolicy.html",
      "category" : "uzdrowiskaIObiektyUzdrowiskowe"
    },
    {
      "position" : {"lat" : "49.937325", "lng" : "18.980228"},
      "title" : "Uzdrowisko Goczałkowice (stara pijalnia, fontanna solankowa)",
      "place" : "Goczałkowice, ul. Uzdrowiskowa",
      "hyperlink" : "http://www.info.goczalkowicezdroj.pl/warto-zobaczyc/zabytki/",
      "category" : "uzdrowiskaIObiektyUzdrowiskowe"
    },
    {
      "position" :{"lat": "50.104483", "lng" : "18.985581"},
      "title": "Tężnia solankowa w Tychach",
      "place" : "Tychy, ul. Uczniowska",
      "hyperlink" : "http://umtychy.pl/artykul/4810/w-tychach-powstanie-teznia-solankowa",
      "category" : "uzdrowiskaIObiektyUzdrowiskowe"
    },
    {
      "position" : {"lat" : "49.813844", "lng" : "18.719806"},
      "title" : "Tężnia solankowa w Dębowcu",
      "place" : "Dębowiec, ul. Katowicka / Szkolna",
      "hyperlink" : "http://debowiec.cieszyn.pl/teznia-solankowa.html",
      "category" : "uzdrowiskaIObiektyUzdrowiskowe"
    },
    {
      "position" : {"lat" : "50.055238", "lng" : "18.478153"},
      "title" : "Tężnia solankowa w Radlinie",
      "place" : "Radlin, ul. Wypandów",
      "hyperlink" : "https://teznia.radlin.pl/",
      "category" : "uzdrowiskaIObiektyUzdrowiskowe"
    },
    {
      "position" : {"lat" : "49.792180", "lng" : "18.948498"},
      "title" : "Fontana solankowa w Jaworzu",
      "place" : "Jaworze, ul. Zdrojowa / Wapienicka",
      "hyperlink" : "https://jaworze.pl/category/dla-turystow/",
      "category" : "uzdrowiskaIObiektyUzdrowiskowe"
    },
    {
      "position" : {"lat" : "49.793155", "lng" : "18.954901"},
      "title" : "Tężnia solankowa w Jaworzu",
      "place" : "Jaworze, ul. Koralowa",
      "hyperlink" : "http://www.villabarbara.pl/teznia-solankowa-jaworze",
      "category" : "uzdrowiskaIObiektyUzdrowiskowe"
    },
    {
      "position" : {"lat" : "49.915367", "lng" : "18.764967"},
      "title" : "Fontana solankowa w Strumieniu",
      "place" : "Strumień, ul. Łuczkiewicza",
      "hyperlink" : "http://www.archiwum.strumien.com/modules.php?name=Content&pa=showpage&pid=123",
      "category" : "uzdrowiskaIObiektyUzdrowiskowe"
    },
    {
      "position" : {"lat" : "49.950172", "lng" : "18.567223"},
      "title" : "Park Zdrojowy w Jastrzębiu Zdroju (inhalatorium, pijalnia wód)",
      "place" : "Jastrzębie Zdrój, ul. Witczaka 5",
      "hyperlink" : "http://jastrzebiezdroj.naszemiasto.pl/tag/inhalatorium-solankowe-jastrzebie.html",
      "category" : "uzdrowiskaIObiektyUzdrowiskowe"
    },
    {
      "position" : {"lat" : "50.007800", "lng" : "18.456769"},
      "title" : "Górnicza Sztolnia Ćwiczebna w Wodzisławiu Śląskim",
      "place" : "Wodzisław Śl., ul. Gałczyńskiego 1",
      "hyperlink" : "http://pckziu.wodzislaw.pl/index.php/sztolnia/",
      "category" : "trasyPodziemne"
    },
    {
      "position" : {"lat" : "50.095908", "lng" : "18.541600"},
      "title" : "Muzeum w Rybniku",
      "place" : "Rybnik, Rynek 18",
      "hyperlink" : "http://www.muzeum.rybnik.pl/",
      "category" : "muzeaGeologiczneIDinoparki"
    },
    {
      "position" : {"lat" : "50.080939", "lng" : "18.188644"},
      "title" : "Śląskie Obserwatorium Geofizyczne PAN w Raciborzu",
      "place" : "Racibórz, ul.Chłopska 1",
      "hyperlink" : "http://www.raciborz.com.pl/art6723.html",
      "category" : "muzeaGeologiczneIDinoparki"
    },
    {
      "position" : {"lat" : "49.715843", "lng" : "18.817493"},
      "title" : "Muzeum Ustrońskie",
      "place" : "Ustroń, ul. Hutnicza 3",
      "hyperlink" : "http://www.muzeum.ustron.pl/",
      "category" : "muzeaGeologiczneIDinoparki"
    },
    {
      "position" : {"lat" : "50.297939", "lng" : "18.967105"},
      "title" : "Kompleks Sztygarka z Szybem Prezydent w Chorzowie",
      "place" : "Chorzów, ul. Piotra Skargi 34 a-d",
      "hyperlink" : "http://sztygarka.pl/",
      "category" : "obiektyPoprzemyslowe"
    },
    {
      "position" : {"lat" : "50.308657", "lng" : "19.063447"},
      "title" : "Elektrownia dawnej KWK Saturn w Czeladzi",
      "place" : "Czeladź, ul. Dehnelów 45",
      "hyperlink" : "http://www.galeria-elektrownia.czeladz.pl/",
      "category" : "obiektyPoprzemyslowe"
    },
    {
      "position" : {"lat" : "50.365148", "lng" : "19.206483"},
      "title" : "Wyrobiska po eksploatacji piasków czwartorzędowych, obecnie sztuczne zbiorniki wodne Pogoria w Dąbrowie Górniczej",
      "place" : "Dąbrowa Górnicza",
      "hyperlink" : "https://pl.wikipedia.org/wiki/Zbiorniki_Pogoria",
      "category" : "obiektyPoprzemyslowe"
    },
    {
      "position" : {"lat" : "50.379564", "lng" : "18.556553"},
      "title" : "Wyrobiska po eksploatacji piasków czwartorzędowych, obecnie sztuczne zbiorniki wodne Dzierżno k. Gliwic",
      "place" : "Pyskowice, Gliwice",
      "hyperlink" : "https://pl.wikipedia.org/wiki/Kategoria:Sztuczne_zbiorniki_wodne_w_wojew%C3%B3dztwie_%C5%9Bl%C4%85skim",
      "category" : "obiektyPoprzemyslowe"
    },
    {
      "position" : {"lat" : "50.290718", "lng" : "18.674892"},
      "title" : "Muzeum Geologii Złóż Politechniki Śląskiej w Gliwicach",
      "place" : "Gliwice, ul. Akademicka 2",
      "hyperlink" : "https://www.polsl.pl/Wydzialy/RG/rg7/Strony/MuzeumGeologiiZloz.aspx",
      "category" : "muzeaGeologiczneIDinoparki"
    },
    {
    "position" : {"lat" : "49.767549", "lng" : "18.909748"},
    "title" : "Szlak szklany Jaworze Nałęże – ranczo Błatnia",
    "place" : "Jaworze, Dolina Jasionki",
    "hyperlink" : "http://www.szklanym-szlakiem.jaworze.pl/strona_glowna",
    "category" : "sciezkiTematyczne"
    },
    {
    "position" : {"lat" : "50.318384", "lng" : "19.183715"},
    "title" : "Muzeum Miejskie Sztygarka w Dąbrowie Górniczej",
    "place" : "Dąbrowa Górnicza, ul. Legionów Polskich 69",
    "hyperlink" : "http://muzeum-dabrowa.pl/",
    "category" : "muzeaGeologiczneIDinoparki"
    },
    {
    "position" : {"lat" : "50.263505", "lng" : "19.034892"},
    "title" : "Muzeum Śląskie na terenie dawnej KWK Katowice",
    "place" : "Katowice, ul. Dobrowolskiego 1",
    "hyperlink" : "http://www.zabytkitechniki.pl/Poi/Pokaz/3657",
    "category" : "obiektyPoprzemyslowe"
    },
    {
    "position" : {"lat" : "49.619821", "lng" : "18.986288"},
    "title" : "Kaskady Rodła w rezerwacie przyrody Wisła",
    "place" : "Wisła, Biała Wisełka",
    "hyperlink" : "http://geostanowiska.pgi.gov.pl/gsapp_v2/ObjectDetails.aspx?id=1409",
    "category" : "geostanowiskaInne"
    },
    {
    "position" : {"lat" : "50.444508", "lng" : "18.855449"},
    "title" : "Gwarki tarnogórskie w Tarnowskich Górach",
    "place" : "Tarnowskie Góry",
    "hyperlink" : "http://www.gwarki.tg.net.pl/",
    "category" : "imprezyTematyczne"
    },
    {
    "position" : {"lat" : "50.300715", "lng" : "18.786059"},
    "title" : "Tydzień Ziemi w Zabrzu",
    "place" : "Zabrze, ul. 3 Maja 19",
    "hyperlink" : "http://www.muzeumgornictwa.pl/index.php",
    "category" : "imprezyTematyczne"
    },
    {
    "position" : {"lat" : "50.269259", "lng" : "19.144324"},
    "title" : "Ogólnopolski Konkurs Geologiczny PIG-PIB",
    "place" : "Sosnowiec, ul. Królowej Jadwigi 1",
    "hyperlink" : "https://www.pgi.gov.pl/sosnowiec/oddzial-gornoslaski.html",
    "category" : "imprezyTematyczne"
    },
    {
    "position" : {"lat" : "50.266573", "lng" : "19.027761"},
    "title" : "Giełda Minerałów, Skał, Skamieniałości i Wyrobów Jubilerskich w Katowicach",
    "place" : "Katowice, Al. W. Korfantego 35",
    "hyperlink" : "www.acton-op.com",
    "category" : "imprezyTematyczne"
    },
    {
    "position" : {"lat" : "50.290284", "lng" : "18.675318"},
    "title" : "Giełda Minerałów, Skał, Skamieniałości i Wyrobów Jubilerskich w Gliwicach",
    "place" : "Gliwice, ul. Akademicka 2",
    "hyperlink" : "https://www.polsl.pl/Wydzialy/RG/rg7/Strony/Gie%C5%82dy_Mineralow.aspx",
    "category" : "imprezyTematyczne"
    },
    {
    "position" : {"lat" : "50.299754", "lng" : "19.133863"},
    "title" : "Giełda Minerałów, Skał, Skamieniałości i Wyrobów Jubilerskich w Sosnowcu",
    "place" : "Sosnowiec, ul. Będzińska 60",
    "hyperlink" : "http://ptpnoz.wnoz.us.edu.pl/sosnowieckie_ gieldy.htm",
    "category" : "imprezyTematyczne"
    },
    {
    "position" : {"lat" : "50.293409", "lng" : "18.662247"},
    "title" : "Giełda Minerałów, Skał, Skamieniałości i Wyrobów Jubilerskich w Gliwicach",
    "place" : "Gliwice, ul. Górnych Wałów 29",
    "hyperlink" : "www.geoexpo.pl",
    "category" : "imprezyTematyczne"
    },
    {
      "position" : {"lat" : "50.823974", "lng" : "19.116605"},
      "title" : "Giełda Minerałów, Skał, Skamieniałości i Wyrobów Jubilerskich w Częstochowie",
      "place" : "Częstochowa, Al. Armii Krajowej 23",
      "hyperlink" : "http://www.ackis.pcz.pl/kontakt",
      "category" : "imprezyTematyczne"
    },
    {
    "position" : {"lat" : "50.278443", "lng" : "19.126652"},
    "title" : "Dni Ziemi w Sosnowcu",
    "place" : "",
    "hyperlink" : "http://ptg.wnoz.us.edu.pl/index.php?option=com_content&view=article&id=177&Itemid=197",
    "category" : "imprezyTematyczne"
    },
    {
    "position" : {"lat" : "50.264264", "lng" : "19.023591"},
    "title" : "Industriada w województwie śląskim",
    "place" : "Województwo Śląskie",
    "hyperlink" : "http://www.industriada.pl/",
    "category" : "imprezyTematyczne"
    },
    {
    "position" : {"lat" : "50.678225", "lng" : "18.644894"},
    "title" : "Glinianka utworów górnotriasowych w Lisowicach (Lipiu Śląskim)",
    "place" : "Lubliniec, ul. Cegielniana",
    "hyperlink" : "http://geostanowiska.pgi.gov.pl/gsapp_v2/ObjectDetails.aspx?id=707",
    "category" : "geostanowiskaMiedzynarodowe"
    },
    {
    "position" : {"lat" : "49.657494", "lng" : "18.982282"},
    "title" : "Jaskinia Malinowska w masywie Malinowa",
    "place" : "Gmina Wisła",
    "hyperlink" : "http://geostanowiska.pgi.gov.pl/gsapp_v2/ObjectDetails.aspx?id=733",
    "category" : "geostanowiskaMiedzynarodowe"
    },
    {
    "position" : {"lat" : "49.648888", "lng" : "18.992777"},
    "title" : "Jaskinia Miecharska w masywie Malinowa, Stanowisko dokumentacyjne",
    "place" : "Gmina Wisła",
    "hyperlink" : "://geostanowiska.pgi.gov.pl/gsapp_v2/ObjectDetails.aspx?id=637",
    "category" : "geostanowiskaMiedzynarodowe"
    },
    {
    "position" : {"lat" : "49.665277", "lng" : "18.957500"},
    "title" : "Jaskinia Wiślańska w masywie Malinowa, Stanowisko dokumentacyjne",
    "place" : "Gmina Brenna, Przełęcz Salmopolska",
    "hyperlink" : "http://geostanowiska.pgi.gov.pl/gsapp_v2/ObjectDetails.aspx?id=1412",
    "category" : "geostanowiskaMiedzynarodowe"
    },
    {
    "position" : {"lat" : "50.797718", "lng" : "19.050711"},
    "title" : "Glinianka iłów środkowojurajskich Gnaszyn w Częstochowie",
    "place" : "Częstochowa, ul. Tatrzańska 3",
    "hyperlink" : "http://geostanowiska.pgi.gov.pl/gsapp_v2/ObjectDetails.aspx?id=9219",
    "category" : "geostanowiskaMiedzynarodowe"
    },
    {
    "position" : {"lat" : "50.494523", "lng" : "19.380730"},
    "title" : "Hałda utworów górnotriasowych w Zawierciu - Marciszowie",
    "place" : "Zawiercie, ul. Podmiejska",
    "hyperlink" : "http://geostanowiska.pgi.gov.pl/gsapp_v2/ObjectDetails.aspx?id=9554",
    "category" : "geostanowiskaMiedzynarodowe"
    },
    {
    "position" : {"lat" : "50.616187", "lng" : "19.484678"},
    "title" : "Jaskinia Stajnia w Grzędzie Mirowskiej k/Niegowej",
    "place" : "Gmina Niegowa",
    "hyperlink" : "http://geostanowiska.pgi.gov.pl/gsapp_v2/ObjectDetails.aspx?id=10096",
    "category" : "geostanowiskaMiedzynarodowe"
    },
    {
    "position" : {"lat" : "50.546111", "lng" : "19.532777"},
    "title" : "Jaskinia w Dziadowej Skale k/Podlesic",
    "place" : "Gmina Kroczyce",
    "hyperlink" : "http://geostanowiska.pgi.gov.pl/gsapp_v2/ObjectDetails.aspx?id=9378",
    "category" : "geostanowiskaMiedzynarodowe"
    },
    {
    "position" : {"lat" : "50.572777", "lng" : "19.518611"},
    "title" : "Jaskinia Żabia w Skałkach Podlesickich",
    "place" : "Gmina Kroczyce",
    "hyperlink" : "http://geostanowiska.pgi.gov.pl/gsapp_v2/ObjectDetails.aspx?id=9371",
    "category" : "geostanowiskaMiedzynarodowe"
    },
    {
    "position" : {"lat" : "50.931638", "lng" : "19.011936"},
    "title" : "Kamieniołom wapieni górnojurajskich w Łobodnie (nieczynny)",
    "place" : "Łobodno, gm. Kłobuck",
    "hyperlink" : "http://geostanowiska.pgi.gov.pl/gsapp_v2/ObjectDetails.aspx?id=9570",
    "category" : "geostanowiskaMiedzynarodowe"
    },
    {
    "position" : {"lat" : "50.504768", "lng" : "19.368913"},
    "title" : "Odsłonięcie utworów triasu górnego w Porębie",
    "place" : "Poręba, ul. Partyzantów",
    "hyperlink" : "http://geostanowiska.pgi.gov.pl/gsapp_v2/ObjectDetails.aspx?id=9376",
    "category" : "geostanowiskaMiedzynarodowe"
    },
    {
    "position" : {"lat" : "50.439185", "lng" : "19.521302"},
    "title" : "Odsłonięcie utworów środkowojurajskich Ogrodzieniec - Świertowiec",
    "place" : "Gmina Ogrodzieniec",
    "hyperlink" : "http://geostanowiska.pgi.gov.pl/gsapp_v2/ObjectDetails.aspx?id=9373",
    "category" : "geostanowiskaMiedzynarodowe"
    },
    {
    "position" : {"lat" : "49.780585", "lng" : "18.646307"},
    "title" : "Sill cieszynitu teralitowego w Zamarskach - Rudowie",
    "place" : "Zamarski, ul. Kamienna",
    "hyperlink" : "http://geostanowiska.pgi.gov.pl/gsapp_v2/ObjectDetails.aspx?id=9721",
    "category" : "geostanowiskaMiedzynarodowe"
    },
    {
    "position" : {"lat" : "49.837137", "lng" : "18.919720"},
    "title" : "Sill pikrytowy ze skarnem pektolitowym w Międzyrzeczu Górnym",
    "place" : "Międzyrzecze Górne, gm. Jasienica",
    "hyperlink" : "http://geostanowiska.pgi.gov.pl/gsapp_v2/ObjectDetails.aspx?id=9668",
    "category" : "geostanowiskaMiedzynarodowe"
    },
    {
    "position" : {"lat" : "49.835494", "lng" : "18.628023"},
    "title" : "Żwirownia w Kończycach Wielkich",
    "place" : "Kończyce Wielkie, gm. Hażlach",
    "hyperlink" : "http://geostanowiska.pgi.gov.pl/gsapp_v2/ObjectDetails.aspx?id=9381",
    "category" : "geostanowiskaMiedzynarodowe"
    },
    {
    "position" : {"lat" : "50.811805", "lng" : "19.112277"},
    "title" : "Muzeum Częstochowskie",
    "place" : "Częstochowa, al. Najświętszej Maryi Panny 47",
    "hyperlink" : "http://www.muzeumczestochowa.pl/",
    "category" : "muzeaGeologiczneIDinoparki"
    },
    {
    "position" : {"lat" : "50.263728", "lng" : "19.080317"},
    "title" : "Muzeum Hutnictwa Cynku w Szopienicach",
    "place" : "Katowice, ul. 11 Listopada 50 (wjazd od ul. Roździeńskiej 25)",
    "hyperlink" : "http://www.walcownia.org/",
    "category" : "muzeaGeologiczneIDinoparki"
    },
    {
    "position" : {"lat" : "50.300751", "lng" : "18.786187"},
    "title" : "Muzeum Górnictwa Węglowego w Zabrzu",
    "place" : "Zabrze, ul. 3maja 19",
    "hyperlink" : "http://www.muzeumgornictwa.pl/",
    "category" : "muzeaGeologiczneIDinoparki"
    },
    {
    "position" : {"lat" : "50.399474", "lng" : "18.633743"},
    "title" : "Mamuty w Pyskowicach",
    "place" : "Pyskowice, ul. Kardynała S. Wyszyńskiego 37",
    "hyperlink" : "http://zabytkigornegoslaska.com.pl/index.php/inne/165-pyskowice-geopunkt",
    "category" : "muzeaGeologiczneIDinoparki"
    },
    {
    "position" : {"lat" : "50.221592", "lng" : "18.672905"},
    "title" : "Izba Tradycji i Perspektyw KWK Knurów-Szczygłowice",
    "place" : "Knurów ul. Dworcowa 3A",
    "hyperlink" : "http://www.wirtualnyknurow.pl/izba.htm",
    "category" : "muzeaGeologiczneIDinoparki"
    },
    {
    "position" : {"lat" : "50.292763", "lng" : "18.665701"},
    "title" : "Muzeum w Gliwicach, Zamek Piastowski",
    "place" : "Gliwice, ul. Pod Murami 2",
    "hyperlink" : "http://www.muzeum.gliwice.pl/",
    "category" : "muzeaGeologiczneIDinoparki"
    },
    {
    "position" : {"lat" : "50.377133", "lng" : "18.907485"},
    "title" : "Mini skansen górniczy w Radzionkowie",
    "place" : "Radzionków, ul. Nałkowskiej 46",
    "hyperlink" : "http://www.gornyslask.net.pl/t/radzionkow-mini-skansen-gorniczy/",
    "category" : "muzeaGeologiczneIDinoparki"
    },
    {
    "position" : {"lat" : "50.062383", "lng" : "18.467683"},
    "title" : "Wirtualna Izba Pamięci Zlikwidowanych Kopalń ROW",
    "place" : "Rybnik, ul. Mościckiego 3",
    "hyperlink" : "https://fkzrow.pl/",
    "category" : "muzeaGeologiczneIDinoparki"
    },
    {
      "position" : {"lat" : "49.854892", "lng" : "18.760588"},
      "title" : "Dream Park w Ochabach Wielkich – oceanarium prehistoryczne, dinopark",
      "place" : "Ochaby Wielkie, ul. Hodowlana 2",
      "hyperlink" : "http://www.dream-park.pl/",
      "category" : "muzeaGeologiczneIDinoparki"
    },
    {
    "position" : {"lat" : "49.801683", "lng" : "18.872416"},
    "title" : "Dajka lamprofirowa w nieczynnym kamieniołomie Goruszka w Grodźcu",
    "place" : "Gmina Jasienica",
    "hyperlink" : "http://geostanowiska.pgi.gov.pl/gsapp_v2/ObjectDetails.aspx?id=9712",
    "category" : "geostanowiskaInne"
    },
    {
    "position" : {"lat" : "50.464347", "lng" : "19.551377"},
    "title" : "Skały wapienne na Górze Birów w Podzamczu",
    "place" : "Gmina Ogrodzieniec",
    "hyperlink" : "http://geostanowiska.pgi.gov.pl/gsapp_v2/ObjectDetails.aspx?id=43",
    "category" : "geostanowiskaInne"
    },
    {
    "position" : {"lat" : " 51.054975", "lng" : " 18.805859"},
    "title" : "Jaskinie i wychodnie skał górnojurajskich w rezerwacie przyrody nieożywionej Szachownica k. Lipia",
    "place" : "Gmina Lipie",
    "hyperlink" : "http://geostanowiska.pgi.gov.pl/gsapp_v2/ObjectDetails.aspx?id=1818",
    "category" : "geostanowiskaInne"
    },
    {
    "position" : {"lat" : "49.769175", "lng" : "18.624342"},
    "title" : "Kamieniołom cieszynitu i lamprofiru w Cieszynie-Boguszowicach (nieczynny)",
    "place" : "Cieszyn, ul. Majowa",
    "hyperlink" : "http://geostanowiska.pgi.gov.pl/gsapp_v2/ObjectDetails.aspx?id=9717",
    "category" : "geostanowiskaInne"
    },
    {
    "position" : {"lat" : "49.769521", "lng" : "18.616255"},
    "title" : "Kamieniołom diabazów w Cieszynie-Boguszowicach (nieczynny)",
    "place" : "Cieszyn, ul Motokrosowa",
    "hyperlink" : "http://geostanowiska.pgi.gov.pl/gsapp_v2/ObjectDetails.aspx?id=9725",
    "category" : "geostanowiskaInne"
    },
    {
    "position" : {"lat" : "50.499239", "lng" : "19.234253"},
    "title" : "Kamieniołom dolomitów triasu i dewonu Nowa Wioska w Siewierzu",
    "place" : "Siewierz, ul. Przemysłowa 2",
    "hyperlink" : "http://geostanowiska.pgi.gov.pl/gsapp_v2/ObjectDetails.aspx?id=9631",
    "category" : "geostanowiskaInne"
    },
    {
    "position" : {"lat" : "50.495366", "lng" : "19.219151"},
    "title" : "Kamieniołom dolomitów triasu i dewonu Siewierz",
    "place" : "Siewierz, ul. Bacholińska 11",
    "hyperlink" : "http://geostanowiska.pgi.gov.pl/gsapp_v2/ObjectDetails.aspx?id=9630",
    "category" : "geostanowiskaInne"
    },
    {
    "position" : {"lat" : "49.678740", "lng" : "18.842992"},
    "title" : "Kamieniołom piaskowców godulskich Wisła-Gahura",
    "place" : "Wisła, ul. Gahura",
    "hyperlink" : "http://geostanowiska.pgi.gov.pl/gsapp_v2/ObjectDetails.aspx?id=9636",
    "category" : "geostanowiskaInne"
    },
    {
    "position" : {"lat" : "49.704885", "lng" : "18.729429"},
    "title" : "Kamieniołom wapieni cieszyńskich w Lesznej Górnej",
    "place" : "Gmina Goleszów",
    "hyperlink" : "http://geostanowiska.pgi.gov.pl/gsapp_v2/ObjectDetails.aspx?id=9649",
    "category" : "geostanowiskaInne"
    },
    {
    "position" : {"lat" : "49.809709", "lng" : "19.234700"},
    "title" : "Kamieniołom warstw godulskich w Wielkiej Puszczy (nieczynny)",
    "place" : "Gmina Porąbka",
    "hyperlink" : "http://geostanowiska.pgi.gov.pl/gsapp_v2/ObjectDetails.aspx?id=1668",
    "category" : "geostanowiskaInne"
    },
    {
    "position" : {"lat" : "49.724869", "lng" : "18.741636"},
    "title" : "Kamieniołomy warstw cieszyńskich na Górze Jasieniowej w Goleszowie (nieczynne), Stanowisko dokumentacyjne",
    "place" : "Gmina Goleszów",
    "hyperlink" : "http://geostanowiska.pgi.gov.pl/gsapp_v2/ObjectDetails.aspx?id=9634",
    "category" : "geostanowiskaInne"
    },
    {
    "position" : {"lat" : "51.040950", "lng" : "18.949972"},
    "title" : "Morena czołowa akumulacyjna w Dąbrówce k. Popowa",
    "place" : "Gmina Popów",
    "hyperlink" : "http://geostanowiska.pgi.gov.pl/gsapp_v2/ObjectDetails.aspx?id=9492",
    "category" : "geostanowiskaInne"
    },
    {
    "position" : {"lat" : "49.659642", "lng" : "19.307017"},
    "title" : "Odsłonięcie stratotypowe ogniwa piaskowca z Mutnego",
    "place" : "Gmina Jeleśnia",
    "hyperlink" : "http://geostanowiska.pgi.gov.pl/gsapp_v2/ObjectDetails.aspx?id=570",
    "category" : "geostanowiskaInne"
    },
    {
    "position" : {"lat" : "49.777778", "lng" : "18.614167"},
    "title" : "Sill cieszynitu i diabazu na terenie rezerwatu przyrody Kopce w Cieszynie – Boguszowicach",
    "place" : "Cieszyn - Boguszowice",
    "hyperlink" : "http://geostanowiska.pgi.gov.pl/gsapp_v2/ObjectDetails.aspx?id=9679",
    "category" : "geostanowiskaInne"
    },
    {
    "position" : {"lat" : "49.763976", "lng" : "18.618889"},
    "title" : "Sil cieszynitu pod estakadą w Cieszynie, Stanowisko dokumentacyjne",
    "place" : "Cieszyn - Boguszowice",
    "hyperlink" : "http://geostanowiska.pgi.gov.pl/gsapp_v2/ObjectDetails.aspx?id=9727",
    "category" : "geostanowiskaInne"
    },
    {
    "position" : {"lat" : "49.776389", "lng" : "18.611111"},
    "title" : "Sill cieszynitu w Cieszynie – Boguszowicach",
    "place" : "Cieszyn, ul Motokrosowa",
    "hyperlink" : "http://geostanowiska.pgi.gov.pl/gsapp_v2/ObjectDetails.aspx?id=9678",
    "category" : "geostanowiskaInne"
    },
    {
    "position" : {"lat" : "49.793056", "lng" : "18.89"},
    "title" : "Sill dolerytu (diabazu) w dolinie Łańskiego Potoku w Grodźcu",
    "place" : "Gmina Jasienica",
    "hyperlink" : "http://geostanowiska.pgi.gov.pl/gsapp_v2/ObjectDetails.aspx?id=9666",
    "category" : "geostanowiskaInne"
    },
    {
    "position" : {"lat" : "49.766944", "lng" : "18.619167"},
    "title" : "Sill pikrytu w Cieszynie - Boguszowicach",
    "place" : "Cieszyn, ul. Kręta",
    "hyperlink" : "http://geostanowiska.pgi.gov.pl/gsapp_v2/ObjectDetails.aspx?id=9715",
    "category" : "geostanowiskaInne"
    },
    {
    "position" : {"lat" : "49.681626", "lng" : "19.196659"},
    "title" : "Sille lamprofirów w dolinie Soły w Żywcu",
    "place" : "Żywiec, dolina Soły",
    "hyperlink" : "http://geostanowiska.pgi.gov.pl/gsapp_v2/ObjectDetails.aspx?id=9650",
    "category" : "geostanowiskaInne"
    },
    {
    "position" : {"lat" : "50.783333", "lng" : "19.261389"},
    "title" : "Uwał Koziniec w Srocku-Kusiętach",
    "place" : "Gmina Mstów",
    "hyperlink" : "http://geostanowiska.pgi.gov.pl/gsapp_v2/ObjectDetails.aspx?id=45",
    "category" : "geostanowiskaInne"
    },
    {
    "position" : {"lat" : "49.584924", "lng" : "19.301353"},
    "title" : "Wodospad na potoku Sopotnia Wielka",
    "place" : "Gmina Jeleśnia",
    "hyperlink" : "http://geostanowiska.pgi.gov.pl/gsapp_v2/ObjectDetails.aspx?id=1357",
    "category" : "geostanowiskaInne"
    },
    {
    "position" : {"lat" : "50.332777", "lng" : "19.26"},
    "title" : "Wychodnia skał górnokarbońskich z faunistycznym poziomem morskim w Dąbrowie Górniczej",
    "place" : "Dąbrowa Górnicza, ul. Laski",
    "hyperlink" : "http://geostanowiska.pgi.gov.pl/gsapp_v2/ObjectDetails.aspx?id=9210",
    "category" : "geostanowiskaInne"
    },
    {
    "position" : {"lat" : "50.660786", "lng" : "19.420603"},
    "title" : "Skałki wapienne Na Bukowym w Trzebniowie",
    "place" : "Gmina Niegowa",
    "hyperlink" : "http://geostanowiska.pgi.gov.pl/gsapp_v2/ObjectDetails.aspx?id=9589",
    "category" : "geostanowiskaInne"
    },
    {
    "position" : {"lat" : "49.767736", "lng" : "19.371275"},
    "title" : "Skałka piaskowcowa Zbójeckie Okno w Zakocierzy",
    "place" : "Gmina Ślemień",
    "hyperlink" : "http://geostanowiska.pgi.gov.pl/gsapp_v2/ObjectDetails.aspx?id=1386",
    "category" : "geostanowiskaInne"
    },
    {
    "position" : {"lat" : "50.412421", "lng" : "18.875813"},
    "title" : "Ślady eksploatacji utworów środkowotriasowych na Górze Cipiorg w Tarnowskich Górach i Bytomiu, Geostanowisko",
    "place" : "Tarnowskie Góry - Bytom",
    "hyperlink" : "http://geostanowiska.pgi.gov.pl/gsapp_v2/ObjectDetails.aspx?id=9635",
    "category" : "obiektyPoprzemyslowe"
    },
    {
    "position" : {"lat" : "50.615278", "lng" : "19.381667"},
    "title" : "Kuesta jurajska w Żarkach",
    "place" : "Żarki - Jaworznik",
    "hyperlink" : "http://geostanowiska.pgi.gov.pl/gsapp_v2/ObjectDetails.aspx?id=1614",
    "category" : "geostanowiskaInne"
    },
    {
    "position" : {"lat" : "50.492889", "lng" : "19.494361"},
    "title" : "Źródła Warty w Kromołowie",
    "place" : "Zawiercie - Kromołów",
    "hyperlink" : "http://geostanowiska.pgi.gov.pl/gsapp_v2/ObjectDetails.aspx?id=1816",
    "category" : "geostanowiskaInne"
    },
    {
    "position" : {"lat" : "50.360806", "lng" : "19.519500"},
    "title" : "Pustynia Błędowska",
    "place" : "Błędów - Chechło",
    "hyperlink" : "http://geostanowiska.pgi.gov.pl/gsapp_v2/ObjectDetails.aspx?id=33",
    "category" : "geostanowiskaInne"
    },
    {
    "position" : {"lat" : "49.747806", "lng" : "19.304917"},
    "title" : "Osuwisko skalne Zamczysko na Ścieszków Groniu w Łysinie, Stanowisko dokumentacyjne",
    "place" : "Gmina Łękawica",
    "hyperlink" : "https://pl.wikipedia.org/wiki/Zamczysko_na_%C5%81ysinie",
    "category" : "geostanowiskaProjektowane"
    },
    {
    "position" : {"lat" : "49.764204", "lng" : "19.395257"},
    "title" : "Wychodnie skalne w rezerwacie Madahora na Łamanej Skale",
    "place" : "Gmina Ślemień",
    "hyperlink" : "https://pl.wikipedia.org/wiki/Rezerwat_przyrody_Madohora",
    "category" : "geostanowiskaProjektowane"
    },
    {
    "position" : {"lat" : "49.741976", "lng" : "19.379615"},
    "title" : "Wychodnie skalne i jaskinie w Czarnych Działach",
    "place" : "Gmina Ślemień",
    "hyperlink" : "http://jaskiniepolski.pgi.gov.pl/Details/Information/3013",
    "category" : "geostanowiskaProjektowane"
    },
    {
    "position" : {"lat" : "49.601277", "lng" : "18.918685"},
    "title" : "Wychodnia skalna Dorkowa Skała na Szarculi w Wiśle",
    "place" : "Gmina Wisła",
    "hyperlink" : "https://pl.wikipedia.org/wiki/Dorkowa_Ska%C5%82a",
    "category" : "geostanowiskaProjektowane"
    },
    {
      "position" : {"lat" : "50.811192", "lng" : "19.156857"},
      "title" : "Kamieniołomy wapieni górnojurajskich na Złotej Górze w Częstochowie",
      "place" : "Częstochowa, ul. Złotogórska",
      "hyperlink" : "http://www.cz.info.pl/cz-temat-dnia2/1994-tarasy-czestochowy-punkt-widokowy-czy-smietnisko",
      "category" : "geostanowiskaProjektowane"
    },
    {
      "position" : {"lat" : "50.824091", "lng" : "19.207493"},
      "title" : "Mirowski Przełom Warty",
      "place" : "Mirów, blisko ul. Zawodziańskiej",
      "hyperlink" : "http://www.czestochowa.pl/data/other/cz.i.mirowski_przelom_warty.pdf",
      "category" : "geostanowiskaProjektowane"
    },
    {
      "position" : {"lat" : "49.836374", "lng" : "19.191011"},
      "title" : "Osuwisko w Bujakowie – największe pod względem powierzchni w polskich Karpatach",
      "place" : "Gminy Porąbka i Kozy",
      "hyperlink" : "http://geoportal.pgi.gov.pl/portal/page/portal/SOPO/",
      "category" : "geostanowiskaProjektowane"
    },
    {
    "position" : {"lat" : "49.656770", "lng" : "19.001526"},
    "title" : "Wychodnia skalna Malinowska Skała",
    "place" : "Gmina Lipowa",
    "hyperlink" : "https://pl.wikipedia.org/wiki/Malinowska_Ska%C5%82a",
    "category" : "geostanowiskaProjektowane"
    },
    {
    "position" : {"lat" : "49.653059", "lng" : "19.019983"},
    "title" : "Wychodnie skalne na Kościelcu",
    "place" : "Gmina Lipowa",
    "hyperlink" : "https://pl.wikipedia.org/wiki/Ko%C5%9Bcielec_(Beskid_%C5%9Al%C4%85ski)",
    "category" : "geostanowiskaProjektowane"
    },
    {
    "position" : {"lat" : "49.628745", "lng" : "19.024761"},
    "title" : "Wychodnie skalne pomiędzy szczytem Magurki Radziechowskiej a Magurki Wiślańskiej",
    "place" : "Gmina Lipowa, Gmina Radziechowy - Wieprz",
    "hyperlink" : "https://pl.wikipedia.org/wiki/Magurka_Radziechowska",
    "category" : "geostanowiskaProjektowane"
    },{
    "position" : {"lat" : "49.531502", "lng" : "19.319107"},
    "title" : "Wychodnie skalne w masywie Pilska",
    "place" : "Gmina Jeleśnia",
    "hyperlink" : "http://geografia.up.krakow.pl/?page_id=4706",
    "category" : "geostanowiskaProjektowane"
    },
    {
    "position" : {"lat" : "49.684444", "lng" : "19.030278"},
    "title" : "Wychodnie skalne na Skrzycznym",
    "place" : "Gmina Szczyrk, Gmina Lipowa",
    "hyperlink" : "https://pl.wikipedia.org/wiki/Skrzyczne",
    "category" : "geostanowiskaProjektowane"
    },
    {
    "position" : {"lat" : "49.579690", "lng" : "19.345068"},
    "title" : "Wodospad na potoku Glinne w Korbielowie",
    "place" : "Gmina Jeleśnia",
    "hyperlink" : "http://korbielow.net/rzeka-potok-korbielow/",
    "category" : "geostanowiskaProjektowane"
    },
    {
    "position" : {"lat" : "49.706217", "lng" : "18.825988"},
    "title" : "Kamieniołom piaskowców godulskich Skalica w Ustroniu (nieczynny), Stanowisko dokumentacyjne",
    "place" : "Ustroń, ul. Nadrzeczna",
    "hyperlink" : "http://www.ustron.bip.info.pl/dokument.php?iddok=11944&str=119",
    "category" : "geostanowiskaProjektowane"
    },
    {
    "position" : {"lat" : "50.314102", "lng" : "19.293742"},
    "title" : "Kamieniołomy wapieni środkowotriasowych na Sroczej Górze w Dąbrowie Górniczej (nieczynne), Stanowisko dokumentacyjne",
    "place" : "Dąbrowa Górnicza, ul. Strzemieszycka",
    "hyperlink" : "http://geostanowiska.pgi.gov.pl/gsapp_v2/ObjectDetails.aspx?id=9221",
    "category" : "geostanowiskaInne"
    },
    {
    "position" : {"lat" : "49.644030", "lng" : "19.056580"},
    "title" : "Osuwisko na Muronce w rezerwacie przyrody Kuźnie k. Twardorzeczki",
    "place" : "Gmina Lipowa",
    "hyperlink" : "http://geostanowiska.pgi.gov.pl/gsapp_v2/ObjectDetails.aspx?id=1712",
    "category" : "geostanowiskaInne"
    },
    {
    "position" : {"lat" : "50.066333", "lng" : "18.429833"},
    "title" : "Wychodnia piaskowców górnokarbońskich Skałka w Rydułtowach, Stanowisko dokumentacyjne",
    "place" : "Rydułtowy, ul. Ofiar Terroru",
    "hyperlink" : "http://geostanowiska.pgi.gov.pl/gsapp_v2/ObjectDetails.aspx?id=1687",
    "category" : "geostanowiskaInne"
    },
    {
      "position" : {"lat" : "50.412278", "lng" : "18.862889"},
      "title" : "Kamieniołom dolomitów środkowotriasowych Bobrowniki (nieczynny)",
      "place" : "Tarnowskie Góry, Bytom",
      "hyperlink" : "http://geostanowiska.pgi.gov.pl/gsapp_v2/ObjectDetails.aspx?id=10466",
      "category" : "geostanowiskaInne"
    },
    {
      "position" : {"lat" : "50,761417", "lng" : "19,477611"},
      "title" : "Kamieniołom utworów górnojurajskich i górnokredowych w Juliance (nieczynny)",
      "place" : "Gmina Przyrów",
      "hyperlink" : "http://geostanowiska.pgi.gov.pl/gsapp_v2/ObjectDetails.aspx?id=9377",
      "category" : "geostanowiskaInne"
    },
    {
      "position" : {"lat" : "50.829556", "lng" : "19.291222"},
      "title" : "Mstowski Przełom Warty",
      "place" : "Gmina Mstów",
      "hyperlink" : "http://geostanowiska.pgi.gov.pl/gsapp_v2/ObjectDetails.aspx?id=1621",
      "category" : "geostanowiskaInne"
    },
    {
    "position" : {"lat" : "50.701694", "lng" : "19.355250"},
    "title" : "Pustynia Siedlecka",
    "place" : "Gmina Janów",
    "hyperlink" : "http://geostanowiska.pgi.gov.pl/gsapp_v2/ObjectDetails.aspx?id=107",
    "category" : "geostanowiskaInne"
    },
    {
    "position" : {"lat" : "50.675092", "lng" : "19.415461"},
    "title" : "Jaskinia Wiercica w Ostrężniku, Stanowisko dokumentacyjne",
    "place" : "Gmina Niegowa",
    "hyperlink" : "http://jaskiniepolski.pgi.gov.pl/Details/Information/2519",
    "category" : "geostanowiskaProjektowane"
    },
    {
    "position" : {"lat" : "50.429500", "lng" : "18.782111"},
    "title" : "Brama Gwarków w Zbrosławicach, Geostanowisko",
    "place" : "Gmina Zbrosławice",
    "hyperlink" : "http://geostanowiska.pgi.gov.pl/gsapp_v2/ObjectDetails.aspx?id=9106",
    "category" : "obiektyPoprzemyslowe"
    },
    {
    "position" : {"lat" : "50.415361", "lng" : "18.855611"},
    "title" : "Hałda popłuczkowa w Tarnowskich Górach, Geostanowisko",
    "place" : "Tarnowskie Góry, ul. Długa",
    "hyperlink" : "http://geostanowiska.pgi.gov.pl/gsapp_v2/ObjectDetails.aspx?id=1623",
    "category" : "obiektyPoprzemyslowe"
    },
    {
    "position" : {"lat" : "49.652930", "lng" : "19.118180"},
    "title" : "Wapiennik w Radziechowach",
    "place" : "Radziechowy - Wieprz, ul. Lipowa",
    "hyperlink" : "http://www.zywiecczyzna.pl/radziechowy/szczegoly.php?953",
    "category" : "obiektyPoprzemyslowe"
    },
    {
    "position" : {"lat" : "50.141030", "lng" : "18.855557"},
    "title" : "Hałda Skalny przy KWK w Łaziskach",
    "place" : "Łaziska Górne",
    "hyperlink" : "https://pl.wikipedia.org/wiki/Ha%C5%82da_Skalny",
    "category" : "obiektyPoprzemyslowe"
    },
    {
    "position" : {"lat" : "50.518028", "lng" : "19.428889"},
    "title" : "Hałda po eksploatacji środkowojurajskich rud żelaza w Rudnikach, Geostanowisko",
    "place" : "Gmina Włodowice",
    "hyperlink" : "http://geostanowiska.pgi.gov.pl/gsapp_v2/ObjectDetails.aspx?id=1790",
    "category" : "obiektyPoprzemyslowe"
    },
    {
    "position" : {"lat" : "50.769394", "lng" : "19.065094"},
    "title" : "Hałda po eksploatacji środkowojurajskich rud żelaza w Dźbowie, Geostanowisko",
    "place" : "Częstochowa",
    "hyperlink" : "http://geostanowiska.pgi.gov.pl/gsapp_v2/ObjectDetails.aspx?id=9499",
    "category" : "obiektyPoprzemyslowe"
    },
    {
    "position" : {"lat" : "50.733486", "lng" : "19.154336"},
    "title" : "Hałda po eksploatacji środkowojurajskich rud żelaza w Nowej Wsi, Geostanowisko",
    "place" : "Gmina Poczesna",
    "hyperlink" : "http://geostanowiska.pgi.gov.pl/gsapp_v2/ObjectDetails.aspx?id=9502",
    "category" : "obiektyPoprzemyslowe"
    },
    {
    "position" : {"lat" : "50.858833", "lng" : "18.870639"},
    "title" : "Hałda po eksploatacji środkowojurajskich rud żelaza w Golcach, Geostanowisko",
    "place" : "Gmina Wręczyca Wielka",
    "hyperlink" : "http://geostanowiska.pgi.gov.pl/gsapp_v2/ObjectDetails.aspx?id=9576",
    "category" : "obiektyPoprzemyslowe"
    },{
    "position" : {"lat" : "50.699047", "lng" : "18.896678"},
    "title" : "Hałdy i wyrobiska po eksploatacji dolnojurajskich rud żelaza w Zumpach, Geostanowisko",
    "place" : "Gmina Boronów",
    "hyperlink" : "http://geostanowiska.pgi.gov.pl/gsapp_v2/ObjectDetails.aspx?id=9427",
    "category" : "obiektyPoprzemyslowe"
    },
    {
    "position" : {"lat" : "50.256958", "lng" : "18.547761"},
    "title" : "Hałdy po eksploatacji neogeńskich rud żelaza w Sośnicowicach -Smolnicy, Geostanowisko",
    "place" : "Gmina Sośnicowice",
    "hyperlink" : "http://geostanowiska.pgi.gov.pl/gsapp_v2/ObjectDetails.aspx?id=9573",
    "category" : "obiektyPoprzemyslowe"
    },
    {
    "position" : {"lat" : "50.798056", "lng" : "18.649722"},
    "title" : "Pozostałości po eksploatacji dolnojurajskich rud żelaza Zborowskie i Panoszów, Geostanowisko",
    "place" : "Gmina Ciasna",
    "hyperlink" : "http://geostanowiska.pgi.gov.pl/gsapp_v2/ObjectDetails.aspx?id=648",
    "category" : "obiektyPoprzemyslowe"
    },
    {
    "position" : {"lat" : "50.062383", "lng" : "18.467683"},
    "title" : "Zabytkowa KWK Ignacy w Rybniku, Geostanowisko",
    "place" : "Rybnik, ul. Mościckiego 3",
    "hyperlink" : "http://geostanowiska.pgi.gov.pl/gsapp_v2/ObjectDetails.aspx?id=9831",
    "category" : "obiektyPoprzemyslowe"
    },
    {
    "position" : {"lat" : "50.064214", "lng" : "18.442596"},
    "title" : "Hałda Szarlota przy KWK w Rydułtowach, Geostanowisko",
    "place" : "Rydułtowy",
    "hyperlink" : "http://geostanowiska.pgi.gov.pl/gsapp_v2/ObjectDetails.aspx?id=9330",
    "category" : "obiektyPoprzemyslowe"
    },
    {
    "position" : {"lat" : "50.569673", "lng" : "19.645400"},
    "title" : "Szlak Żelazna Dolina w Pradłach, Geostanowisko",
    "place" : "Gmina Kroczyce",
    "hyperlink" : "http://geostanowiska.pgi.gov.pl/gsapp_v2/ObjectDetails.aspx?id=9390",
    "category" : "sciezkiTematyczne"
    },
    {
    "position" : {"lat" : "50.475417", "lng" : "19.334453"},
    "title" : "Wyrobiska po eksploatacji dolnojurajskiego węgla brunatnego w Porębie, Geostanowisko",
    "place" : "Gmina Poręba",
    "hyperlink" : "http://geostanowiska.pgi.gov.pl/gsapp_v2/ObjectDetails.aspx?id=9487",
    "category" : "obiektyPoprzemyslowe"
    },
    {
    "position" : {"lat" : "50.071542", "lng" : "18.711033"},
    "title" : "Wieża wyciągowa po hucie żelaza Waleska w Palowicach",
    "place" : "Gmina Palowice",
    "hyperlink" : "http://m.peuk.fiiz.pl/poi/index/poi/3280208/page/1/obj/#page-poi-details-0",
    "category" : "obiektyPoprzemyslowe"
    },
    {
    "position" : {"lat" : "50.285453", "lng" : "18.919147"},
    "title" : "Wieże dawnej KWK Polska w Świętochłowicach",
    "place" : "Świętochłowice, ul. Wojska Polskiego 16D",
    "hyperlink" : "http://www.zabytkitechniki.pl/Poi/Pokaz/176470",
    "category" : "obiektyPoprzemyslowe"
    },
    {
    "position" : {"lat" : "50.510722", "lng" : "18.988558"},
    "title" : "Zatopiona Kopalnia rud Zn-Pb Bibiela – Pasieki, Geostanowisko",
    "place" : "Miasteczko Śląskie - Pasieki",
    "hyperlink" : "http://geostanowiska.pgi.gov.pl/gsapp_v2/ObjectDetails.aspx?id=9863",
    "category" : "obiektyPoprzemyslowe"
    },
    {
    "position" : {"lat" : "50.428753", "lng" : "18.771628"},
    "title" : "Ścieżka rowerowa Śladami dawnego górnictwa Tarnowskich Gór, Geostanowiska",
    "place" : "Tarnowskie Góry",
    "hyperlink" : "http://rowerempotg.blogspot.com/2010/04/trasa-numer-1-sladami-dawnego-gornictwa.html",
    "category" : "sciezkiTematyczne"
    },
    {
    "position" : {"lat" : "50.180084", "lng" : "18.848824"},
    "title" : "Wapienniki w Mikołowie-Mokre, Geostanowiska",
    "place" : "Mikołów-Mokre, ul. 15 Grudnia 1B",
    "hyperlink" : "http://geostanowiska.pgi.gov.pl/gsapp_v2/ObjectDetails.aspx?id=1603",
    "category" : "obiektyPoprzemyslowe"
    },
    {
    "position" : {"lat" : "49.487597", "lng" : "19.036351"},
    "title" : "Źródła solankowe w Soli, Geostanowisko",
    "place" : "Gmina Rajcza",
    "hyperlink" : "http://geostanowiska.pgi.gov.pl/gsapp_v2/ObjectDetails.aspx?id=9229",
    "category" : "uzdrowiskaIObiektyUzdrowiskowe"
    },
    {
    "position" : {"lat" : "49.719780", "lng" : "19.375388"},
    "title" : "Ruiny pieca hutniczego w Ślemieniu",
    "place" : "Ślemień, ul. Spacerowa",
    "hyperlink" : "http://zwiedzajbeskidy.pl/index.php?option=com_k2&view=item&id=284:ruiny-pieca-w-slemieniu&Itemid=719",
    "category" : "obiektyPoprzemyslowe"
    },
    {
    "position" : {"lat" : "49.512249", "lng" : "19.219902"},
    "title" : "Pozostałości po hucie szkła w Złatnej",
    "place" : "Gmina Ujsoły",
    "hyperlink" : "http://zabytkitechniki.pl/Poi/Pokaz/15910/1939/ruiny-huty-szkla-w-zlatnej",
    "category" : "obiektyPoprzemyslowe"
    },
    {
    "position" : {"lat" : "49.511874", "lng" : "19.210448"},
    "title" : "Źródło siarczkowe w Złatnej",
    "place" : "Gmina Ujsoły",
    "hyperlink" : "http://ibrbs.pl/mediawiki/index.php/Źródła_województwa_śląskiego",
    "category" : "uzdrowiskaIObiektyUzdrowiskowe"
    },
    {
    "position" : {"lat" : "50.679485", "lng" : "19.212217"},
    "title" : "Izba Pamięci Gminy Poraj",
    "place" : "Poraj, ul. Piłsudskiego 14",
    "hyperlink" : "http://www.gokporaj.pl/izba-pamieci-gminy-poraj/",
    "category" : "muzeaGeologiczneIDinoparki"
    },
    {
    "position" : {"lat" : "50.669608", "lng" : "19.445061"},
    "title" : "Jaskinia Brzozowa w Ludwinowie",
    "place" : "Gmina Niegowa",
    "hyperlink" : "http://geostanowiska.pgi.gov.pl/gsapp_v2/ObjectDetails.aspx?id=9368",
    "category" : "geostanowiskaInne"
    },
    {
    "position" : {"lat" : "49.806525", "lng" : "18.871642"},
    "title" : "Martwice wapienne w Grodźcu",
    "place" : "Gmina Jasienica",
    "hyperlink" : "http://geostanowiska.pgi.gov.pl/gsapp_v2/ObjectDetails.aspx?id=9448",
    "category" : "geostanowiskaInne"
    },
    {
    "position" : {"lat" : "49.733150", "lng" : "18.985533"},
    "title" : "Jaskinia w Trzech Kopcach",
    "place" : "Gmina Brenna",
    "hyperlink" : "http://geostanowiska.pgi.gov.pl/gsapp_v2/ObjectDetails.aspx?id=1387",
    "category" : "geostanowiskaInne"
    },
    {
    "position" : {"lat" : "50.807436", "lng" : "19.067408"},
    "title" : "Glinianka iłów środkowojurajskich Anna w Częstochowie",
    "place" : "Częstochowa, ul. Huculska",
    "hyperlink" : "http://geostanowiska.pgi.gov.pl/gsapp_v2/ObjectDetails.aspx?id=9213",
    "category" : "geostanowiskaInne"
    },
    {
    "position" : {"lat" : "50.785444", "lng" : "19.044139"},
    "title" : "Glinianki iłów środkowojurajskich Gliński i Sowa w Częstochowie",
    "place" : "Częstochowa",
    "hyperlink" : "http://geostanowiska.pgi.gov.pl/gsapp_v2/ObjectDetails.aspx?id=9214",
    "category" : "geostanowiskaInne"
    },
    {
    "position" : {"lat" : "49.805922", "lng" : "18.842392"},
    "title" : "Głaz narzutowy Rosnący Kamień w Pogórzu",
    "place" : "Gmina Skoczów",
    "hyperlink" : "http://geostanowiska.pgi.gov.pl/gsapp_v2/ObjectDetails.aspx?id=9230",
    "category" : "geostanowiskaInne"
    },
    {
    "position" : {"lat" : "50.101953", "lng" : "18.792800"},
    "title" : "Wyrobisko piasków czwartorzędowych w Gardawicach",
    "place" : "Gmina Orzesze",
    "hyperlink" : "http://geostanowiska.pgi.gov.pl/gsapp_v2/ObjectDetails.aspx?id=9488",
    "category" : "geostanowiskaInne"
    },
    {
    "position" : {"lat" : "50.802247", "lng" : "19.388083"},
    "title" : "Wychodnia utworów kredowych w Mokrzeszu koło Częstochowy",
    "place" : "Gmina Mstów",
    "hyperlink" : "http://geostanowiska.pgi.gov.pl/gsapp_v2/ObjectDetails.aspx?id=9550",
    "category" : "geostanowiskaInne"
    },
    {
    "position" : {"lat" : "49.864286", "lng" : "18.903350"},
    "title" : "Głaz narzutowy w Rudzicy",
    "place" : "Gmina Jasienica",
    "hyperlink" : "http://geostanowiska.pgi.gov.pl/gsapp_v2/ObjectDetails.aspx?id=9187",
    "category" : "geostanowiskaInne"
    },
    {
    "position" : {"lat" : "50.576181", "lng" : "19.531850"},
    "title" : "Jaskinia Berkowa na Górze Kołoczek",
    "place" : "Gmina Kroczyce",
    "hyperlink" : "http://geostanowiska.pgi.gov.pl/gsapp_v2/ObjectDetails.aspx?id=9826",
    "category" : "geostanowiskaInne"
    },
    {
    "position" : {"lat" : "50.693647", "lng" : "19.667164"},
    "title" : "Źródła pulsujące w dolinie Białki Lelowskiej",
    "place" : "Gmina Lelów",
    "hyperlink" : "http://geostanowiska.pgi.gov.pl/gsapp_v2/ObjectDetails.aspx?id=9552",
    "category" : "geostanowiskaInne"
    },
    {
    "position" : {"lat" : "49.842183", "lng" : "18.865247"},
    "title" : "Sill pikrytu w Roztropicach",
    "place" : "Gmina Jasienica",
    "hyperlink" : "http://geostanowiska.pgi.gov.pl/gsapp_v2/ObjectDetails.aspx?id=9710",
    "category" : "geostanowiskaInne"
    },
    {
    "position" : {"lat" : "50.276342", "lng" : "18.473647"},
    "title" : "Wyrobisko iłów neogeńskich w Sierakowicach",
    "place" : "Gmina Sośnicowice",
    "hyperlink" : "http://geostanowiska.pgi.gov.pl/gsapp_v2/ObjectDetails.aspx?id=9383",
    "category" : "geostanowiskaInne"
    },
    {
    "position" : {"lat" : "50.370206", "lng" : "19.027678"},
    "title" : "Kamieniołom skał środkowotriasowych Żychcice w Wojkowicach (nieczynny)",
    "place" : "Wojkowice, ul. G. Zapolskiej",
    "hyperlink" : "http://geostanowiska.pgi.gov.pl/gsapp_v2/ObjectDetails.aspx?id=9482",
    "category" : "geostanowiskaInne"
    },
    {
    "position" : {"lat" : "50.451472", "lng" : "19.553333"},
    "title" : "Ostańce wapienne na Górze Janowskiego (Zamkowej) w Podzamczu",
    "place" : "Podzamcze k/Ogrodzieńca",
    "hyperlink" : "http://geostanowiska.pgi.gov.pl/gsapp_v2/ObjectDetails.aspx?id=1794",
    "category" : "geostanowiskaInne"
    },
    {
    "position" : {"lat" : "49.758550", "lng" : "19.410017"},
    "title" : "Jaskinia Komonieckiego i wodospad Dusica k. wsi Las",
    "place" : "Gmina Ślemień",
    "hyperlink" : "http://geostanowiska.pgi.gov.pl/gsapp_v2/ObjectDetails.aspx?id=1337",
    "category" : "geostanowiskaInne"
    },
    {
    "position" : {"lat" : "49.770417", "lng" : "19.139367"},
    "title" : "Jaskinia Wietrzna Dziura w Magurce",
    "place" : "Gmina Wilkowice",
    "hyperlink" : "http://geostanowiska.pgi.gov.pl/gsapp_v2/ObjectDetails.aspx?id=1385",
    "category" : "geostanowiskaInne"
    },
    {
    "position" : {"lat" : "50.093722", "lng" : "18.214917"},
    "title" : "Głaz narzutowy w Raciborzu",
    "place" : "Racibórz, Pl. Wolności",
    "hyperlink" : "http://geostanowiska.pgi.gov.pl/gsapp_v2/ObjectDetails.aspx?id=654",
    "category" : "geostanowiskaInne"
    },
    {
    "position" : {"lat" : "50.133342", "lng" : "18.435708"},
    "title" : "Niecka wytopiskowa po martwym lodzie w okolicy Zwonowic",
    "place" : "Gmina Lyski",
    "hyperlink" : "http://geostanowiska.pgi.gov.pl/gsapp_v2/ObjectDetails.aspx?id=9380",
    "category" : "geostanowiskaInne"
    },
    {
    "position" : {"lat" : "50.521889", "lng" : "19.446667"},
    "title" : "Źródła w Rudnikach (Łakotnik)",
    "place" : "Gmina Zawiercie",
    "hyperlink" : "http://geostanowiska.pgi.gov.pl/gsapp_v2/ObjectDetails.aspx?id=1778",
    "category" : "geostanowiskaInne"
    },
    {
    "position" : {"lat" : "49.723225", "lng" : "18.667658"},
    "title" : "Kamieniołom cieszynitu w Puńcowie (nieczynny)",
    "place" : "Gmina Goleszów",
    "hyperlink" : "http://geostanowiska.pgi.gov.pl/gsapp_v2/ObjectDetails.aspx?id=9724",
    "category" : "geostanowiskaInne"
    },
    {
    "position" : {"lat" : "49.785031", "lng" : "18.643575"},
    "title" : "Sill cieszynitu w Zamarskach – Rudowie",
    "place" : "Gmina Hażlach",
    "hyperlink" : "http://geostanowiska.pgi.gov.pl/gsapp_v2/ObjectDetails.aspx?id=9720",
    "category" : "geostanowiskaInne"
    },
    {
    "position" : {"lat" : "50.870261", "lng" : "19.072844"},
    "title" : "Kamieniołom wapieni górnojurajskich w Białej Dolnej (nieczynny)",
    "place" : "Gmina Kłobuck",
    "hyperlink" : "http://geostanowiska.pgi.gov.pl/gsapp_v2/ObjectDetails.aspx?id=9569",
    "category" : "geostanowiskaInne"
    },
    {
    "position" : {"lat" : "50.561206", "lng" : "19.140175"},
    "title" : "Łomy wapieni górnotriasowych w Krusinie",
    "place" : "Gmina Koziegłowy",
    "hyperlink" : "http://geostanowiska.pgi.gov.pl/gsapp_v2/ObjectDetails.aspx?id=9713",
    "category" : "geostanowiskaInne"
    },
    {
    "position" : {"lat" : "50.600975", "lng" : "19.113169"},
    "title" : "Wyrobisko żwirów dolnojurajskich w Gniazdowie 1",
    "place" : "Gmina Koziegłowy",
    "hyperlink" : "http://geostanowiska.pgi.gov.pl/gsapp_v2/ObjectDetails.aspx?id=9578",
    "category" : "geostanowiskaInne"
    },
    {
    "position" : {"lat" : "50.789444", "lng" : "19.050056"},
    "title" : "Glinianka iłów środkowojurajskich Leszczyński w Czestochowie",
    "place" : "Częstochowa, ul. 10 Zakładników",
    "hyperlink" : "http://geostanowiska.pgi.gov.pl/gsapp_v2/ObjectDetails.aspx?id=9217",
    "category" : "geostanowiskaInne"
    },
    {
    "position" : {"lat" : "50.756694", "lng" : "19.147472"},
    "title" : "Kamieniołom wapieni środkowo- i górnojurajskich we Wrzosowej (nieczynny)",
    "place" : "Gmina Poczesna",
    "hyperlink" : "http://geostanowiska.pgi.gov.pl/gsapp_v2/ObjectDetails.aspx?id=9374",
    "category" : "geostanowiskaInne"
    },
    {
    "position" : {"lat" : "50.431611", "lng" : "19.361806"},
    "title" : "Kamieniołom wapieni górnojurajskich w Wysokiej (nieczynny)",
    "place" : "Gmina Łazy",
    "hyperlink" : "http://geostanowiska.pgi.gov.pl/gsapp_v2/ObjectDetails.aspx?id=9211",
    "category" : "geostanowiskaInne"
    },
    {
    "position" : {"lat" : "50.767222", "lng" : "19.270778"},
    "title" : "Ostańce wapienne w rezerwacie przyrody Góry Towarne k. Olsztyna",
    "place" : "Gmina Olsztyn",
    "hyperlink" : "http://geostanowiska.pgi.gov.pl/gsapp_v2/ObjectDetails.aspx?id=108",
    "category" : "geostanowiskaInne"
    },
    {
    "position" : {"lat" : "49.807233", "lng" : "19.201686"},
    "title" : "Przełom Soły",
    "place" : "Gmina Czernichów",
    "hyperlink" : "http://geostanowiska.pgi.gov.pl/gsapp_v2/ObjectDetails.aspx?id=9551",
    "category" : "geostanowiskaInne"
    },
    {
    "position" : {"lat" : "50.586892", "lng" : "19.540332"},
    "title" : "Jaskinia w Kroczycach",
    "place" : "Gmina Kroczyce",
    "hyperlink" : "http://geostanowiska.pgi.gov.pl/gsapp_v2/ObjectDetails.aspx?id=9389",
    "category" : "geostanowiskaInne"
    },
    {
    "position" : {"lat" : "50.780778", "lng" : "19.259556"},
    "title" : "Jezioro krasowe w Kusiętach",
    "place" : "Gmina Olsztyn",
    "hyperlink" : "http://geostanowiska.pgi.gov.pl/gsapp_v2/ObjectDetails.aspx?id=179",
    "category" : "geostanowiskaInne"
    },
    {
    "position" : {"lat" : "50.763353", "lng" : "19.478633"},
    "title" : "Źródła w Juliance - Sygontce",
    "place" : "Gmina Przyrów",
    "hyperlink" : "http://geostanowiska.pgi.gov.pl/gsapp_v2/ObjectDetails.aspx?id=9719",
    "category" : "geostanowiskaInne"
    },
    {
    "position" : {"lat" : "49.630083", "lng" : "18.855639"},
    "title" : "Krzakoska Skała w Wiśle",
    "place" : "Gmina Wisła",
    "hyperlink" : "http://geostanowiska.pgi.gov.pl/gsapp_v2/ObjectDetails.aspx?id=6550",
    "category" : "geostanowiskaInne"
    },
    {
    "position" : {"lat" : "50.822064", "lng" : "19.567464"},
    "title" : "Kamieniołomy skał górnokredowych w Olbrachcicach (nieczynne)",
    "place" : "Gmina Dąbrowa Zielona",
    "hyperlink" : "http://geostanowiska.pgi.gov.pl/gsapp_v2/ObjectDetails.aspx?id=9528",
    "category" : "geostanowiskaInne"
    },
    {
    "position" : {"lat" : "50.602217", "lng" : "19.127817"},
    "title" : "Wyrobisko żwirów dolnojurajskich w Gniazdowie 2",
    "place" : "Gmina Koziegłowy",
    "hyperlink" : "http://geostanowiska.pgi.gov.pl/gsapp_v2/ObjectDetails.aspx?id=9577",
    "category" : "geostanowiskaInne"
    },
    {
    "position" : {"lat" : "50.559128", "lng" : "19.164806"},
    "title" : "Wyrobisko żwirów dolnojurajskich w Markowicach",
    "place" : "Gmina Koziegłowy",
    "hyperlink" : "http://geostanowiska.pgi.gov.pl/gsapp_v2/ObjectDetails.aspx?id=9716",
    "category" : "geostanowiskaInne"
    },
    {
    "position" : {"lat" : "50.566786", "lng" : "19.163497"},
    "title" : "Wyrobisko żwirów dolnojurajskich w Rzeniszowie",
    "place" : "Gmina Koziegłowy",
    "hyperlink" : "http://geostanowiska.pgi.gov.pl/gsapp_v2/ObjectDetails.aspx?id=9216",
    "category" : "geostanowiskaInne"
    },
    {
    "position" : {"lat" : "50.315000", "lng" : "18.868167"},
    "title" : "Dawny kamieniołom piaskowców górnokarbońskich Sztajnbruch w Rudzie Śląskiej",
    "place" : "Ruda Śląska, ul. Wincentego",
    "hyperlink" : "http://geostanowiska.pgi.gov.pl/gsapp_v2/ObjectDetails.aspx?id=7352",
    "category" : "geostanowiskaInne"
    },
    {
    "position" : {"lat" : "49.672956", "lng" : "19.080081"},
    "title" : "Sill lamprofiru w Lipowej",
    "place" : "Gmina Lipowa",
    "hyperlink" : "http://geostanowiska.pgi.gov.pl/gsapp_v2/ObjectDetails.aspx?id=9673",
    "category" : "geostanowiskaInne"
    },
    {
    "position" : {"lat" : "50.411972", "lng" : "19.277611"},
    "title" : "Pozostałości po eksploatacji środkowotriasowych rud Pb-Ag-Zn na Trzebiesławskiej Górze, Geostanowisko",
    "place" : "Dąbrowa Górnicza - Ujejsce",
    "hyperlink" : "http://geostanowiska.pgi.gov.pl/gsapp_v2/ObjectDetails.aspx?id=10172",
    "category" : "obiektyPoprzemyslowe"
    },
    {
    "position" : {"lat" : "50.206184", "lng" : "18.386197"},
    "title" : "Dolina rzeki Rudy w Kuźni Raciborskiej",
    "place" : "Gmina Kuźnia Raciborska",
    "hyperlink" : "http://geostanowiska.pgi.gov.pl/gsapp_v2/ObjectDetails.aspx?id=9391",
    "category" : "geostanowiskaInne"
    },
    {
    "position" : {"lat" : "50.689750", "lng" : "19.403889"},
    "title" : "Ostaniec wapienny Brama Twardowskiego k. Złotego Potoku",
    "place" : "Gmina Janów",
    "hyperlink" : "http://geostanowiska.pgi.gov.pl/gsapp_v2/ObjectDetails.aspx?id=9171",
    "category" : "geostanowiskaInne"
    },
    {
      "position" : {"lat" : "50.148449", "lng" : "18.879757"},
      "title" : "Kamieniołom piaskowców górnokarbońskich w Łaziskach (nieczynny), Stanowisko dokumentacyjne",
      "place" : "Łaziska Średnie",
      "hyperlink" : "http://geostanowiska.pgi.gov.pl/gsapp_v2/ObjectDetails.aspx?id=9212",
      "category" : "geostanowiskaInne"
    },
    {
    "position" : {"lat" : "50.635289", "lng" : "19.427222"},
    "title" : "Wzgórze ostańcowe Czarny Kamień w Moczydle",
    "place" : "Gmina Niegowa",
    "hyperlink" : "http://geostanowiska.pgi.gov.pl/gsapp_v2/ObjectDetails.aspx?id=9827",
    "category" : "geostanowiskaInne"
    },
    {
    "position" : {"lat" : "50.731278", "lng" : "19.280556"},
    "title" : "Jaskinia Olsztyńska w Sokolich Górach",
    "place" : "Gmina Olsztyn",
    "hyperlink" : "http://geostanowiska.pgi.gov.pl/gsapp_v2/ObjectDetails.aspx?id=83",
    "category" : "geostanowiskaInne"
    },
    {
    "position" : {"lat" : "50.789644", "lng" : "18.839450"},
    "title" : "Naturalne jezioro w Jeziorze",
    "place" : "Gmina Wręczyca Wielka",
    "hyperlink" : "http://geostanowiska.pgi.gov.pl/gsapp_v2/ObjectDetails.aspx?id=9494",
    "category" : "geostanowiskaInne"
    },
    {
    "position" : {"lat" : "50.756483", "lng" : "19.326731"},
    "title" : "Kamieniołom wapieni górnojurajskich w Przymiłowicach (nieczynny)",
    "place" : "Gmina Olsztyn",
    "hyperlink" : "http://geostanowiska.pgi.gov.pl/gsapp_v2/ObjectDetails.aspx?id=9718",
    "category" : "geostanowiskaInne"
    },
    {
    "position" : {"lat" : "50.482356", "lng" : "18.964614"},
    "title" : "Kamieniołomy wapieni środkowotriasowych w Żyglinie",
    "place" : "Gmina Miasteczko Śląskie",
    "hyperlink" : "http://geostanowiska.pgi.gov.pl/gsapp_v2/ObjectDetails.aspx?id=9563",
    "category" : "geostanowiskaInne"
    },
    {
    "position" : {"lat" : "50.215836", "lng" : "18.496614"},
    "title" : "Hałdy po eksploatacji neogeńskich rud żelaza w Stanicy-Górniki, Geostanowisko",
    "place" : "Gmina Pilchowice",
    "hyperlink" : "http://geostanowiska.pgi.gov.pl/gsapp_v2/ObjectDetails.aspx?id=9491",
    "category" : "obiektyPoprzemyslowe"
    },
    {
    "position" : {"lat" : "50.572833", "lng" : "19.530167"},
    "title" : "Ostańce wapienne w rezerwacie przyrody nieożywionej Góra Zborów w Podlesicach",
    "place" : "Gmina Kroczyce",
    "hyperlink" : "http://geostanowiska.pgi.gov.pl/gsapp_v2/ObjectDetails.aspx?id=178",
    "category" : "geostanowiskaInne"
    },
    {
    "position" : {"lat" : "50.421672", "lng" : "19.621708"},
    "title" : "Ostańce wapienne Ruskie Góry w Ryczowie",
    "place" : "Gmina Ogrodzieniec",
    "hyperlink" : "http://geostanowiska.pgi.gov.pl/gsapp_v2/ObjectDetails.aspx?id=9714",
    "category" : "geostanowiskaInne"
    },
    {
    "position" : {"lat" : "50.524139", "lng" : "19.522750"},
    "title" : "Skała wapienna Okiennik Wielki w Piasecznie",
    "place" : "Gmina Kroczyce",
    "hyperlink" : "http://geostanowiska.pgi.gov.pl/gsapp_v2/ObjectDetails.aspx?id=1618",
    "category" : "geostanowiskaInne"
    },
    {
    "position" : {"lat" : "49.663722", "lng" : "19.066278"},
    "title" : "Wychodnie skalne w dolinie potoku Zimnik k. Lipowej",
    "place" : "Gmina Lipowa",
    "hyperlink" : "http://geostanowiska.pgi.gov.pl/gsapp_v2/ObjectDetails.aspx?id=9366",
    "category" : "geostanowiskaInne"
    },
    {
    "position" : {"lat" : "49.595056", "lng" : "18.832083"},
    "title" : "Skałki piaskowcowe pomiędzy Stożkiem Wielkim a Kiczorami w Wiśle",
    "place" : "Gmina Wisła",
    "hyperlink" : "http://geostanowiska.pgi.gov.pl/gsapp_v2/ObjectDetails.aspx?id=7372",
    "category" : "geostanowiskaInne"
    },
    {
    "position" : {"lat" : "50.590889", "lng" : "19.571472"},
    "title" : "Ostańce wapienne na Górze Słupsko w Kostkowicach",
    "place" : "Gmina Kroczyce",
    "hyperlink" : "http://geostanowiska.pgi.gov.pl/gsapp_v2/ObjectDetails.aspx?id=10167",
    "category" : "geostanowiskaInne"
    },
    {
    "position" : {"lat" : "50.685583", "lng" : "19.628167"},
    "title" : "Źródło szczelinowe w Lelowie",
    "place" : "Gmina Lelów",
    "hyperlink" : "http://geostanowiska.pgi.gov.pl/gsapp_v2/ObjectDetails.aspx?id=10159",
    "category" : "geostanowiskaInne"
    },
    {
    "position" : {"lat" : "50.729389", "lng" : "19.291917"},
    "title" : "Jaskinia Komarowa w rezerwacie przyrody Sokole Góry k. Olsztyna",
    "place" : "Gmina Olsztyn",
    "hyperlink" : "http://geostanowiska.pgi.gov.pl/gsapp_v2/ObjectDetails.aspx?id=10084",
    "category" : "geostanowiskaInne"
    },
    {
    "position" : {"lat" : "49.548500", "lng" : "18.975222"},
    "title" : "Kamieniołom piaskowców krośnieńskich Koczy Zamek w Istebnej (nieczynny)",
    "place" : "Gmina Istebna",
    "hyperlink" : "http://geostanowiska.pgi.gov.pl/gsapp_v2/ObjectDetails.aspx?id=909",
    "category" : "geostanowiskaInne"
    },
    {
    "position" : {"lat" : "50.550583", "lng" : "19.520667"},
    "title" : "Skały wapienne w rejonie Zamku Bąkowiec w Morsku",
    "place" : "Gmina Zawiercie",
    "hyperlink" : "http://geostanowiska.pgi.gov.pl/gsapp_v2/ObjectDetails.aspx?id=4190",
    "category" : "geostanowiskaInne"
    },
    {
    "position" : {"lat" : "49.830347", "lng" : "19.163732"},
    "title" : "Kamieniołom warstw lgockich w Kozach (nieczynny)",
    "place" : "Gmina Kozy",
    "hyperlink" : "http://geostanowiska.pgi.gov.pl/gsapp_v2/ObjectDetails.aspx?id=10467",
    "category" : "geostanowiskaInne"
    },
    {
    "position" : {"lat" : "49.570874", "lng" : "19.054906"},
    "title" : "Kamieniołom warstw krośnieńskich w Kamesznicy (nieczynny)",
    "place" : "Gmina Milówka",
    "hyperlink" : "http://geostanowiska.pgi.gov.pl/gsapp_v2/ObjectDetails.aspx?id=957",
    "category" : "geostanowiskaInne"
    },
    {
    "position" : {"lat" : "49.576333", "lng" : "19.010083"},
    "title" : "Wychodnie skalne w potoku Janoszka k. Kamesznicy",
    "place" : "Gmina Milówka",
    "hyperlink" : "http://geostanowiska.pgi.gov.pl/gsapp_v2/ObjectDetails.aspx?id=955",
    "category" : "geostanowiskaInne"
    },
    {
    "position" : {"lat" : "49.627511", "lng" : "18.907381"},
    "title" : "Wychodnia zlepieńców malinowskich w Wiśle-Nowej Osadzie",
    "place" : "Wisła, ul. Czarne",
    "hyperlink" : "http://geostanowiska.pgi.gov.pl/gsapp_v2/ObjectDetails.aspx?id=911",
    "category" : "geostanowiskaInne"
    },
    {
    "position" : {"lat" : "49.666535", "lng" : "19.075537"},
    "title" : "Ścieżka przyrodnicza Dolina Zimnika w Lipowej, Geostanowisko",
    "place" : "Lipowa, Potok Zimnik",
    "hyperlink" : "https://lipowaiokolice.blogspot.com/2013/04/sciezka-edukacyjna-dolina-zimnika.html",
    "category" : "sciezkiTematyczne"
    },
    {
    "position" : {"lat" : "50.438005", "lng" : "19.669163"},
    "title" : "Ścieżka przyrodnicza Dolina Wodąca w Smoleniu, Geostanowiska",
    "place" : "Smoleń, Gmina Pilica",
    "hyperlink" : "http://katowice.rdos.gov.pl/sciezki-przyrodnicze-na-obszarach-naturowych",
    "category" : "sciezkiTematyczne"
    },
    {
    "position" : {"lat" : "50.772921", "lng" : "19.240594"},
    "title" : "Ścieżka edukacyjna Zielona Góra w Kusiętach, Geostanowisko",
    "place" : "Kusięta, Gmina Olsztyn",
    "hyperlink" : "http://katowice.rdos.gov.pl/sciezki-przyrodnicze-na-obszarach-naturowych",
    "category" : "sciezkiTematyczne"
    },
    {
    "position" : {"lat" : "49.719383", "lng" : "18.812029"},
    "title" : "Szlak Źródlany w Ustroniu, Geostanowiska",
    "place" : "Ustroń Rynek – Źródło Żelaziste – Źródło Karola",
    "hyperlink" : "http://www.beskidslaski.pl/Ustron/szlakispacer.html",
    "category" : "sciezkiTematyczne"
    },
    {
    "position" : {"lat" : "50.640446", "lng" : "19.386614"},
    "title" : "Szlak Rajce w Przewodziszowicach",
    "place" : "Gmina Żarki",
    "hyperlink" : "http://www.turystykazarki.pl/kategorie/turystyka_pieszo_rowerowa",
    "category" : "sciezkiTematyczne"
    },
    {
    "position" : {"lat" : "50.640446", "lng" : "19.386614"},
    "title" : "Szlak Rajce w Przewodziszowicach",
    "place" : "Gmina Żarki",
    "hyperlink" : "http://www.turystykazarki.pl/kategorie/turystyka_pieszo_rowerowa",
    "category" : "sciezkiTematyczne"
    },
    {
    "position" : {"lat" : "50.702943", "lng" : "19.431732"},
    "title" : "Ścieżka dydaktyczna po rezerwacie przyrody Parkowe k. Złotego Potoku, Geostanowiska",
    "place" : "przy drodze Złoty Potok – Żarki",
    "hyperlink" : "http://katowice.rdos.gov.pl/sciezki-przyrodnicze-na-obszarach-naturowych",
    "category" : "sciezkiTematyczne"
    },
    {
    "position" : {"lat" : "50.730878", "lng" : "19.264925"},
    "title" : "Ścieżka dydaktyczna po rezerwacie przyrody Sokole Góry w Olsztynie, Geostanowiska",
    "place" : "Olsztyn",
    "hyperlink" : "http://katowice.rdos.gov.pl/sciezki-przyrodnicze-na-obszarach-naturowych",
    "category" : "sciezkiTematyczne"
    },
    {
    "position" : {"lat" : "50.750442", "lng" : "19.272888"},
    "title" : "Ścieżka dydaktyczna po rezerwacie przyrody Sokole Góry w Olsztynie, Geostanowiska",
    "place" : "Olsztyn",
    "hyperlink" : "http://katowice.rdos.gov.pl/sciezki-przyrodnicze-na-obszarach-naturowych",
    "category" : "sciezkiTematyczne"
    },
    {
      "position" : {"lat" : "49.680247", "lng" : "18.848008"},
      "title" : "Szlak Industrialnego Dziedzictwa Ustronia",
      "place" : "Wisła / Ustroń",
      "hyperlink" : "http://www.muzeum.ustron.pl/",
      "category" : "sciezkiTematyczne"
    },
    {
      "position" : {"lat" : "49.728584", "lng" : "18.806030"},
      "title" : "Szlak Industrialnego Dziedzictwa Ustronia",
      "place" : "Wisła / Ustroń",
      "hyperlink" : "http://www.muzeum.ustron.pl/",
      "category" : "sciezkiTematyczne"
    },
    {
      "position" : {"lat" : "49.938741", "lng" : "18.330167"},
      "title" : "Ścieżka przyrodnicza „Meandry rzeki Odry” k/Chałupek",
      "place" : "Gmina Krzyżanowice",
      "hyperlink" : "http://www.krzyzanowice.pl/site/start.html",
      "category" : "sciezkiTematyczne"
    }
  ]
}